{"type":"FeatureCollection","features":[{"type":"Feature","properties":{"name":"New River State Park","marker-color":"#7e7e7e","marker-size":"medium","marker-symbol":"circle"},"geometry":{"coordinates":[-81.34136300000205,36.46527362831752],"type":"Point"},"id":0},{"type":"Feature","properties":{"name":"Elk Knob State Park","marker-color":"#7e7e7e","marker-size":"medium","marker-symbol":"circle"},"geometry":{"coordinates":[-81.47010900000086,36.39793363580367],"type":"Point"},"id":1},{"type":"Feature","properties":{"name":"Stone Mountain State Park","marker-color":"#7e7e7e","marker-size":"medium","marker-symbol":"circle"},"geometry":{"coordinates":[-81.02604000000088,36.37862999999926],"type":"Point"},"id":2},{"type":"Feature","properties":{"name":"Rendezvous Mountain","marker-color":"#7e7e7e","marker-size":"medium","marker-symbol":"circle"},"geometry":{"coordinates":[-81.28765027116405,36.21894799999913],"type":"Point"},"id":3},{"type":"Feature","properties":{"name":"Grandfather Mountain State Park","marker-color":"#7e7e7e","marker-size":"medium","marker-symbol":"circle"},"geometry":{"coordinates":[-81.78746727116344,36.154783662742474],"type":"Point"},"id":4},{"type":"Feature","properties":{"name":"Mount Mitchell State Park","marker-color":"#7e7e7e","marker-size":"medium","marker-symbol":"circle"},"geometry":{"coordinates":[-82.27728600000059,35.74565599999998],"type":"Point"},"id":5},{"type":"Feature","properties":{"name":"Lake James State Park","marker-color":"#7e7e7e","marker-size":"medium","marker-symbol":"circle"},"geometry":{"coordinates":[-81.87591600000005,35.7547809999989],"type":"Point"},"id":6},{"type":"Feature","properties":{"name":"Chimney Rock State Park","marker-color":"#7e7e7e","marker-size":"medium","marker-symbol":"circle"},"geometry":{"coordinates":[-82.24906010004618,35.43986053164795],"type":"Point"},"id":8},{"type":"Feature","properties":{"name":"Gorges State Park","marker-color":"#7e7e7e","marker-size":"medium","marker-symbol":"circle"},"geometry":{"coordinates":[-82.94975727116389,35.090572000000506],"type":"Point"},"id":9},{"type":"Feature","properties":{"name":"South Mountains State Park","marker-color":"#7e7e7e","marker-size":"medium","marker-symbol":"circle"},"geometry":{"coordinates":[-81.60032327116305,35.5964042759835],"type":"Point"},"id":10}]}